{
  "export_time": "2025-11-26T10:00:00",
  "total_count": 100,
  "poi_data": [
    {
      "name": "成都海康威视科技有限公司",
      "address": "成都市高新区天府软件园E区",
      "type": "企业",
      "location": {
        "lng": 104.08209,
        "lat": 30.65674
      },
      "distance": 0,
      "tel": "028-85331234",
      "rating": 4.5,
      "region": "成都市",
      "tag": "人工智能"
    },
    {
      "name": "成都华为技术有限公司",
      "address": "成都市高新区天府大道中段",
      "type": "企业",
      "location": {
        "lng": 104.06374,
        "lat": 30.65674
      },
      "distance": 0,
      "tel": "028-85331235",
      "rating": 4.8,
      "region": "成都市",
      "tag": "人工智能"
    },
    {
      "name": "成都腾讯科技有限公司",
      "address": "成都市高新区天府大道北段",
      "type": "企业",
      "location": {
        "lng": 104.05722,
        "lat": 30.67464
      },
      "distance": 0,
      "tel": "028-85331236",
      "rating": 4.7,
      "region": "成都市",
      "tag": "人工智能"
    },
    {
      "name": "成都百度智能科技有限公司",
      "address": "成都市武侯区科华北路65号",
      "type": "企业",
      "location": {
        "lng": 104.07864,
        "lat": 30.65324
      },
      "distance": 0,
      "tel": "028-85331237",
      "rating": 4.6,
      "region": "成都市",
      "tag": "人工智能"
    },
    {
      "name": "成都旷视科技有限公司",
      "address": "成都市高新区天府软件园B区",
      "type": "企业",
      "location": {
        "lng": 104.07779,
        "lat": 30.65984
      },
      "distance": 0,
      "tel": "028-85331238",
      "rating": 4.5,
      "region": "成都市",
      "tag": "人工智能"
    },
    {
      "name": "成都商汤科技有限公司",
      "address": "成都市高新区天府大道中段",
      "type": "企业",
      "location": {
        "lng": 104.06542,
        "lat": 30.65754
      },
      "distance": 0,
      "tel": "028-85331239",
      "rating": 4.7,
      "region": "成都市",
      "tag": "人工智能"
    },
    {
      "name": "成都云从科技有限公司",
      "address": "成都市锦江区新谷路100号",
      "type": "企业",
      "location": {
        "lng": 104.08445,
        "lat": 30.66024
      },
      "distance": 0,
      "tel": "028-85331240",
      "rating": 4.4,
      "region": "成都市",
      "tag": "人工智能"
    },
    {
      "name": "成都依图科技有限公司",
      "address": "成都市高新区天府大道南段",
      "type": "企业",
      "location": {
        "lng": 104.05489,
        "lat": 30.65284
      },
      "distance": 0,
      "tel": "028-85331241",
      "rating": 4.3,
      "region": "成都市",
      "tag": "人工智能"
    },
    {
      "name": "成都明略科技有限公司",
      "address": "成都市高新区天府软件园C区",
      "type": "企业",
      "location": {
        "lng": 104.07998,
        "lat": 30.65874
      },
      "distance": 0,
      "tel": "028-85331242",
      "rating": 4.2,
      "region": "成都市",
      "tag": "人工智能"
    },
    {
      "name": "成都第四范式科技有限公司",
      "address": "成都市金牛区二环路北一段",
      "type": "企业",
      "location": {
        "lng": 104.04562,
        "lat": 30.68324
      },
      "distance": 0,
      "tel": "028-85331243",
      "rating": 4.6,
      "region": "成都市",
      "tag": "人工智能"
    },
    {
      "name": "成都深兰科技有限公司",
      "address": "成都市高新区天府大道中段",
      "type": "企业",
      "location": {
        "lng": 104.06234,
        "lat": 30.65894
      },
      "distance": 0,
      "tel": "028-85331244",
      "rating": 4.5,
      "region": "成都市",
      "tag": "人工智能"
    },
    {
      "name": "成都优必选科技有限公司",
      "address": "成都市青羊区人民中路二段",
      "type": "企业",
      "location": {
        "lng": 104.06687,
        "lat": 30.66984
      },
      "distance": 0,
      "tel": "028-85331245",
      "rating": 4.4,
      "region": "成都市",
      "tag": "人工智能"
    },
    {
      "name": "成都云知声科技有限公司",
      "address": "成都市高新区天府软件园A区",
      "type": "企业",
      "location": {
        "lng": 104.08021,
        "lat": 30.65744
      },
      "distance": 0,
      "tel": "028-85331246",
      "rating": 4.3,
      "region": "成都市",
      "tag": "人工智能"
    },
    {
      "name": "成都思必驰科技有限公司",
      "address": "成都市武侯区科华中路9号",
      "type": "企业",
      "location": {
        "lng": 104.07543,
        "lat": 30.65454
      },
      "distance": 0,
      "tel": "028-85331247",
      "rating": 4.2,
      "region": "成都市",
      "tag": "人工智能"
    },
    {
      "name": "成都出门问问科技有限公司",
      "address": "成都市锦江区东大街下东大街段",
      "type": "企业",
      "location": {
        "lng": 104.08321,
        "lat": 30.66114
      },
      "distance": 0,
      "tel": "028-85331248",
      "rating": 4.1,
      "region": "成都市",
      "tag": "人工智能"
    },
    {
      "name": "成都智东西科技有限公司",
      "address": "成都市高新区天府大道北段",
      "type": "企业",
      "location": {
        "lng": 104.05894,
        "lat": 30.67324
      },
      "distance": 0,
      "tel": "028-85331249",
      "rating": 4.0,
      "region": "成都市",
      "tag": "人工智能"
    },
    {
      "name": "成都地平线机器人科技有限公司",
      "address": "成都市武侯区人民南路四段",
      "type": "企业",
      "location": {
        "lng": 104.06934,
        "lat": 30.65284
      },
      "distance": 0,
      "tel": "028-85331250",
      "rating": 4.6,
      "region": "成都市",
      "tag": "人工智能"
    },
    {
      "name": "成都寒武纪科技有限公司",
      "address": "成都市高新区天府软件园D区",
      "type": "企业",
      "location": {
        "lng": 104.07892,
        "lat": 30.66014
      },
      "distance": 0,
      "tel": "028-85331251",
      "rating": 4.7,
      "region": "成都市",
      "tag": "人工智能"
    },
    {
      "name": "成都图森未来科技有限公司",
      "address": "成都市高新区天府大道中段",
      "type": "企业",
      "location": {
        "lng": 104.06412,
        "lat": 30.65764
      },
      "distance": 0,
      "tel": "028-85331252",
      "rating": 4.5,
      "region": "成都市",
      "tag": "人工智能"
    },
    {
      "name": "成都小i机器人科技有限公司",
      "address": "成都市锦江区创意产业商务区",
      "type": "企业",
      "location": {
        "lng": 104.08154,
        "lat": 30.66234
      },
      "distance": 0,
      "tel": "028-85331253",
      "rating": 4.3,
      "region": "成都市",
      "tag": "人工智能"
    },
    {
      "name": "成都科大讯飞科技有限公司",
      "address": "成都市高新区天府软件园F区",
      "type": "企业",
      "location": {
        "lng": 104.07821,
        "lat": 30.65544
      },
      "distance": 0,
      "tel": "028-85331254",
      "rating": 4.6,
      "region": "成都市",
      "tag": "人工智能"
    },
    {
      "name": "成都深睿医疗科技有限公司",
      "address": "成都市武侯区科华北路89号",
      "type": "企业",
      "location": {
        "lng": 104.07754,
        "lat": 30.65194
      },
      "distance": 0,
      "tel": "028-85331255",
      "rating": 4.4,
      "region": "成都市",
      "tag": "人工智能"
    },
    {
      "name": "成都医拍智能科技有限公司",
      "address": "成都市高新区天府大道南段",
      "type": "企业",
      "location": {
        "lng": 104.05321,
        "lat": 30.65154
      },
      "distance": 0,
      "tel": "028-85331256",
      "rating": 4.2,
      "region": "成都市",
      "tag": "人工智能"
    },
    {
      "name": "成都格灵深瞳科技有限公司",
      "address": "成都市金牛区金牛高科技产业园",
      "type": "企业",
      "location": {
        "lng": 104.04342,
        "lat": 30.69434
      },
      "distance": 0,
      "tel": "028-85331257",
      "rating": 4.3,
      "region": "成都市",
      "tag": "人工智能"
    },
    {
      "name": "成都神策网络科技有限公司",
      "address": "成都市武侯区天府大道中段",
      "type": "企业",
      "location": {
        "lng": 104.06678,
        "lat": 30.65524
      },
      "distance": 0,
      "tel": "028-85331258",
      "rating": 4.5,
      "region": "成都市",
      "tag": "人工智能"
    },
    {
      "name": "成都神经网络科技有限公司",
      "address": "成都市青羊区成飞大道创新中心",
      "type": "企业",
      "location": {
        "lng": 104.05792,
        "lat": 30.68544
      },
      "distance": 0,
      "tel": "028-85331259",
      "rating": 4.2,
      "region": "成都市",
      "tag": "人工智能"
    },
    {
      "name": "成都智慧眼科技有限公司",
      "address": "成都市高新区天府大道北段",
      "type": "企业",
      "location": {
        "lng": 104.05712,
        "lat": 30.67544
      },
      "distance": 0,
      "tel": "028-85331260",
      "rating": 4.0,
      "region": "成都市",
      "tag": "人工智能"
    },
    {
      "name": "成都极智嘉科技有限公司",
      "address": "成都市高新区天府软件园G区",
      "type": "企业",
      "location": {
        "lng": 104.08012,
        "lat": 30.66124
      },
      "distance": 0,
      "tel": "028-85331261",
      "rating": 4.6,
      "region": "成都市",
      "tag": "人工智能"
    },
    {
      "name": "成都优帆科技有限公司",
      "address": "成都市锦江区锦华路一段",
      "type": "企业",
      "location": {
        "lng": 104.09234,
        "lat": 30.65874
      },
      "distance": 0,
      "tel": "028-85331262",
      "rating": 4.3,
      "region": "成都市",
      "tag": "人工智能"
    },
    {
      "name": "成都海致科技有限公司",
      "address": "成都市武侯区科华南路1号",
      "type": "企业",
      "location": {
        "lng": 104.07462,
        "lat": 30.65644
      },
      "distance": 0,
      "tel": "028-85331263",
      "rating": 4.1,
      "region": "成都市",
      "tag": "人工智能"
    },
    {
      "name": "成都云合智网科技有限公司",
      "address": "成都市高新区天府大道中段",
      "type": "企业",
      "location": {
        "lng": 104.06354,
        "lat": 30.65814
      },
      "distance": 0,
      "tel": "028-85331264",
      "rating": 4.4,
      "region": "成都市",
      "tag": "人工智能"
    },
    {
      "name": "成都数联科技有限公司",
      "address": "成都市成华区龙潭工业园区",
      "type": "企业",
      "location": {
        "lng": 104.12834,
        "lat": 30.70454
      },
      "distance": 0,
      "tel": "028-85331265",
      "rating": 4.2,
      "region": "成都市",
      "tag": "人工智能"
    },
    {
      "name": "成都中科创达科技有限公司",
      "address": "成都市高新区天府大道中段",
      "type": "企业",
      "location": {
        "lng": 104.06578,
        "lat": 30.65684
      },
      "distance": 0,
      "tel": "028-85331266",
      "rating": 4.5,
      "region": "成都市",
      "tag": "人工智能"
    },
    {
      "name": "成都天智行科技有限公司",
      "address": "成都市锦江区创意产业孵化园",
      "type": "企业",
      "location": {
        "lng": 104.08245,
        "lat": 30.66344
      },
      "distance": 0,
      "tel": "028-85331267",
      "rating": 4.3,
      "region": "成都市",
      "tag": "人工智能"
    },
    {
      "name": "成都极链网络科技有限公司",
      "address": "成都市武侯区人民南路四段11号",
      "type": "企业",
      "location": {
        "lng": 104.06894,
        "lat": 30.65414
      },
      "distance": 0,
      "tel": "028-85331268",
      "rating": 4.1,
      "region": "成都市",
      "tag": "人工智能"
    },
    {
      "name": "成都智链科技有限公司",
      "address": "成都市高新区天府大道北段",
      "type": "企业",
      "location": {
        "lng": 104.05942,
        "lat": 30.67414
      },
      "distance": 0,
      "tel": "028-85331269",
      "rating": 4.0,
      "region": "成都市",
      "tag": "人工智能"
    },
    {
      "name": "成都云迹科技有限公司",
      "address": "成都市武侯区科华北路", 
      "type": "企业",
      "location": {
        "lng": 104.07624,
        "lat": 30.65384
      },
      "distance": 0,
      "tel": "028-85331270",
      "rating": 4.2,
      "region": "成都市",
      "tag": "人工智能"
    },
    {
      "name": "成都智行科技有限公司",
      "address": "成都市高新区天府软件园H区",
      "type": "企业",
      "location": {
        "lng": 104.07987,
        "lat": 30.66214
      },
      "distance": 0,
      "tel": "028-85331271",
      "rating": 4.4,
      "region": "成都市",
      "tag": "人工智能"
    },
    {
      "name": "成都星云智创科技有限公司",
      "address": "成都市锦江区春熙路",
      "type": "企业",
      "location": {
        "lng": 104.08234,
        "lat": 30.65724
      },
      "distance": 0,
      "tel": "028-85331272",
      "rating": 4.3,
      "region": "成都市",
      "tag": "人工智能"
    },
    {
      "name": "成都极光科技有限公司",
      "address": "成都市金牛区高科技产业园",
      "type": "企业",
      "location": {
        "lng": 104.04432,
        "lat": 30.69534
      },
      "distance": 0,
      "tel": "028-85331273",
      "rating": 4.5,
      "region": "成都市",
      "tag": "人工智能"
    },
    {
      "name": "成都智汇科技有限公司",
      "address": "成都市高新区天府大道南段",
      "type": "企业",
      "location": {
        "lng": 104.05567,
        "lat": 30.65234
      },
      "distance": 0,
      "tel": "028-85331274",
      "rating": 4.1,
      "region": "成都市",
      "tag": "人工智能"
    },
    {
      "name": "成都深蓝科技有限公司",
      "address": "成都市武侯区科华中路",
      "type": "企业",
      "location": {
        "lng": 104.07321,
        "lat": 30.65574
      },
      "distance": 0,
      "tel": "028-85331275",
      "rating": 4.2,
      "region": "成都市",
      "tag": "人工智能"
    },
    {
      "name": "成都图灵科技有限公司",
      "address": "成都市高新区天府软件园I区",
      "type": "企业",
      "location": {
        "lng": 104.07834,
        "lat": 30.65934
      },
      "distance": 0,
      "tel": "028-85331276",
      "rating": 4.6,
      "region": "成都市",
      "tag": "人工智能"
    },
    {
      "name": "成都智科科技有限公司",
      "address": "成都市锦江区东大街",
      "type": "企业",
      "location": {
        "lng": 104.08432,
        "lat": 30.66154
      },
      "distance": 0,
      "tel": "028-85331277",
      "rating": 4.3,
      "region": "成都市",
      "tag": "人工智能"
    },
    {
      "name": "成都未来科技有限公司",
      "address": "成都市武侯区天府大道中段",
      "type": "企业",
      "location": {
        "lng": 104.06721,
        "lat": 30.65484
      },
      "distance": 0,
      "tel": "028-85331278",
      "rating": 4.4,
      "region": "成都市",
      "tag": "人工智能"
    },
    {
      "name": "成都创新科技有限公司",
      "address": "成都市高新区天府大道中段",
      "type": "企业",
      "location": {
        "lng": 104.06456,
        "lat": 30.65834
      },
      "distance": 0,
      "tel": "028-85331279",
      "rating": 4.5,
      "region": "成都市",
      "tag": "人工智能"
    },
    {
      "name": "成都智慧科技有限公司",
      "address": "成都市锦江区创意产业园区",
      "type": "企业",
      "location": {
        "lng": 104.08345,
        "lat": 30.66284
      },
      "distance": 0,
      "tel": "028-85331280",
      "rating": 4.2,
      "region": "成都市",
      "tag": "人工智能"
    },
    {
      "name": "成都天智科技有限公司",
      "address": "成都市武侯区科华北路",
      "type": "企业",
      "location": {
        "lng": 104.07567,
        "lat": 30.65324
      },
      "distance": 0,
      "tel": "028-85331281",
      "rating": 4.6,
      "region": "成都市",
      "tag": "人工智能"
    },
    {
      "name": "成都云智科技有限公司",
      "address": "成都市高新区天府软件园J区",
      "type": "企业",
      "location": {
        "lng": 104.07954,
        "lat": 30.66074
      },
      "distance": 0,
      "tel": "028-85331282",
      "rating": 4.3,
      "region": "成都市",
      "tag": "人工智能"
    },
    {
      "name": "成都星科科技有限公司",
      "address": "成都市金牛区金牛科技园",
      "type": "企业",
      "location": {
        "lng": 104.04234,
        "lat": 30.69324
      },
      "distance": 0,
      "tel": "028-85331283",
      "rating": 4.1,
      "region": "成都市",
      "tag": "人工智能"
    },
    {
      "name": "成都智云科技有限公司",
      "address": "成都市高新区天府大道北段",
      "type": "企业",
      "location": {
        "lng": 104.05834,
        "lat": 30.67584
      },
      "distance": 0,
      "tel": "028-85331284",
      "rating": 4.4,
      "region": "成都市",
      "tag": "人工智能"
    },
    {
      "name": "成都深智科技有限公司",
      "address": "成都市武侯区人民南路四段",
      "type": "企业",
      "location": {
        "lng": 104.06854,
        "lat": 30.65364
      },
      "distance": 0,
      "tel": "028-85331285",
      "rating": 4.5,
      "region": "成都市",
      "tag": "人工智能"
    },
    {
      "name": "成都科创科技有限公司",
      "address": "成都市锦江区创意孵化园",
      "type": "企业",
      "location": {
        "lng": 104.08187,
        "lat": 30.66324
      },
      "distance": 0,
      "tel": "028-85331286",
      "rating": 4.2,
      "region": "成都市",
      "tag": "人工智能"
    },
    {
      "name": "成都智汇云科技有限公司",
      "address": "成都市高新区天府大道中段",
      "type": "企业",
      "location": {
        "lng": 104.06543,
        "lat": 30.65734
      },
      "distance": 0,
      "tel": "028-85331287",
      "rating": 4.3,
      "region": "成都市",
      "tag": "人工智能"
    },
    {
      "name": "成都未来智联科技有限公司",
      "address": "成都市武侯区科华路",
      "type": "企业",
      "location": {
        "lng": 104.07432,
        "lat": 30.65514
      },
      "distance": 0,
      "tel": "028-85331288",
      "rating": 4.6,
      "region": "成都市",
      "tag": "人工智能"
    },
    {
      "name": "成都深智联科技有限公司",
      "address": "成都市锦江区创意大厦",
      "type": "企业",
      "location": {
        "lng": 104.08378,
        "lat": 30.66194
      },
      "distance": 0,
      "tel": "028-85331289",
      "rating": 4.4,
      "region": "成都市",
      "tag": "人工智能"
    },
    {
      "name": "成都云智联科技有限公司",
      "address": "成都市高新区天府软件园K区",
      "type": "企业",
      "location": {
        "lng": 104.07898,
        "lat": 30.66144
      },
      "distance": 0,
      "tel": "028-85331290",
      "rating": 4.5,
      "region": "成都市",
      "tag": "人工智能"
    },
    {
      "name": "电子科技大学",
      "address": "成都市高新区（西区）西源大道2006号",
      "type": "高校",
      "location": {
        "lng": 104.03545,
        "lat": 30.78987
      },
      "distance": 0,
      "tel": "028-61830000",
      "rating": 4.8,
      "region": "成都市",
      "tag": "高校"
    },
    {
      "name": "四川大学",
      "address": "成都市武侯区一环路南一段24号",
      "type": "高校",
      "location": {
        "lng": 104.06543,
        "lat": 30.65456
      },
      "distance": 0,
      "tel": "028-85400000",
      "rating": 4.7,
      "region": "成都市",
      "tag": "高校"
    },
    {
      "name": "西南交通大学",
      "address": "成都市郫都区犀安路999号",
      "type": "高校",
      "location": {
        "lng": 103.88123,
        "lat": 30.75890
      },
      "distance": 0,
      "tel": "028-66366666",
      "rating": 4.6,
      "region": "成都市",
      "tag": "高校"
    },
    {
      "name": "西南财经大学",
      "address": "成都市温江区柳台大道555号",
      "type": "高校",
      "location": {
        "lng": 104.02345,
        "lat": 30.68987
      },
      "distance": 0,
      "tel": "028-87092000",
      "rating": 4.6,
      "region": "成都市",
      "tag": "高校"
    },
    {
      "name": "成都理工大学",
      "address": "成都市成华区二仙桥东三路1号",
      "type": "高校",
      "location": {
        "lng": 104.12890,
        "lat": 30.70123
      },
      "distance": 0,
      "tel": "028-84078888",
      "rating": 4.5,
      "region": "成都市",
      "tag": "高校"
    },
    {
      "name": "四川师范大学",
      "address": "成都市锦江区静安路5号",
      "type": "高校",
      "location": {
        "lng": 104.11567,
        "lat": 30.62345
      },
      "distance": 0,
      "tel": "028-84760000",
      "rating": 4.4,
      "region": "成都市",
      "tag": "高校"
    },
    {
      "name": "西华大学",
      "address": "成都市郫都区红光大道999号",
      "type": "高校",
      "location": {
        "lng": 103.86789,
        "lat": 30.75678
      },
      "distance": 0,
      "tel": "028-87720000",
      "rating": 4.3,
      "region": "成都市",
      "tag": "高校"
    },
    {
      "name": "成都中医药大学",
      "address": "成都市温江区柳台大道1166号",
      "type": "高校",
      "location": {
        "lng": 104.03678,
        "lat": 30.68123
      },
      "distance": 0,
      "tel": "028-61800000",
      "rating": 4.4,
      "region": "成都市",
      "tag": "高校"
    },
    {
      "name": "四川农业大学",
      "address": "成都市温江区惠民路211号",
      "type": "高校",
      "location": {
        "lng": 104.04123,
        "lat": 30.68345
      },
      "distance": 0,
      "tel": "028-82652081",
      "rating": 4.4,
      "region": "成都市",
      "tag": "高校"
    },
    {
      "name": "西南民族大学",
      "address": "成都市双流区大件路文星段168号",
      "type": "高校",
      "location": {
        "lng": 103.97890,
        "lat": 30.58123
      },
      "distance": 0,
      "tel": "028-85522000",
      "rating": 4.3,
      "region": "成都市",
      "tag": "高校"
    },
    {
      "name": "成都信息工程大学",
      "address": "成都市西南航空港经济开发区学府路一段24号",
      "type": "高校",
      "location": {
        "lng": 103.96456,
        "lat": 30.56890
      },
      "distance": 0,
      "tel": "028-85966500",
      "rating": 4.2,
      "region": "成都市",
      "tag": "高校"
    },
    {
      "name": "四川轻化工大学成都校区",
      "address": "成都市郫都区郫筒街道中信大道二段1号",
      "type": "高校",
      "location": {
        "lng": 103.88789,
        "lat": 30.80234
      },
      "distance": 0,
      "tel": "028-87022000",
      "rating": 4.2,
      "region": "成都市",
      "tag": "高校"
    },
    {
      "name": "成都大学",
      "address": "成都市龙泉驿区十陵镇",
      "type": "高校",
      "location": {
        "lng": 104.15678,
        "lat": 30.65890
      },
      "distance": 0,
      "tel": "028-84616000",
      "rating": 4.1,
      "region": "成都市",
      "tag": "高校"
    },
    {
      "name": "成都工业学院",
      "address": "成都市郫都区中信大道二段1号",
      "type": "高校",
      "location": {
        "lng": 103.88567,
        "lat": 30.80345
      },
      "distance": 0,
      "tel": "028-87992000",
      "rating": 4.1,
      "region": "成都市",
      "tag": "高校"
    },
    {
      "name": "成都医学院",
      "address": "成都市新都区新都大道783号",
      "type": "高校",
      "location": {
        "lng": 104.14567,
        "lat": 30.83234
      },
      "distance": 0,
      "tel": "028-61638888",
      "rating": 4.2,
      "region": "成都市",
      "tag": "高校"
    },
    {
      "name": "四川工商学院",
      "address": "成都市郫都区团结街道花石路",
      "type": "高校",
      "location": {
        "lng": 103.84345,
        "lat": 30.74567
      },
      "distance": 0,
      "tel": "028-60109999",
      "rating": 4.0,
      "region": "成都市",
      "tag": "高校"
    },
    {
      "name": "成都东软学院",
      "address": "成都市都江堰市青城山镇东软大道1号",
      "type": "高校",
      "location": {
        "lng": 103.62345,
        "lat": 30.99876
      },
      "distance": 0,
      "tel": "028-64888000",
      "rating": 4.0,
      "region": "成都市",
      "tag": "高校"
    },
    {
      "name": "四川长江职业学院",
      "address": "成都市成华区龙港路399号",
      "type": "高校",
      "location": {
        "lng": 104.13234,
        "lat": 30.63456
      },
      "distance": 0,
      "tel": "028-65322900",
      "rating": 3.9,
      "region": "成都市",
      "tag": "高校"
    },
    {
      "name": "成都航空职业技术学院",
      "address": "成都市龙泉驿区车城东七路699号",
      "type": "高校",
      "location": {
        "lng": 104.21345,
        "lat": 30.62345
      },
      "distance": 0,
      "tel": "028-88459888",
      "rating": 4.1,
      "region": "成都市",
      "tag": "高校"
    },
    {
      "name": "四川交通职业技术学院",
      "address": "成都市温江区柳台大道东段208号",
      "type": "高校",
      "location": {
        "lng": 104.02987,
        "lat": 30.68456
      },
      "distance": 0,
      "tel": "028-82696666",
      "rating": 4.0,
      "region": "成都市",
      "tag": "高校"
    },
    {
      "name": "中国科学院光电技术研究所",
      "address": "成都市双流区双华路4段966号",
      "type": "科研院所",
      "location": {
        "lng": 103.92345,
        "lat": 30.57890
      },
      "distance": 0,
      "tel": "028-85643456",
      "rating": 4.7,
      "region": "成都市",
      "tag": "科研院所"
    },
    {
      "name": "中国电子科技集团公司第十研究所",
      "address": "成都市高新区创业路16号",
      "type": "科研院所",
      "location": {
        "lng": 104.05789,
        "lat": 30.64345
      },
      "distance": 0,
      "tel": "028-85193456",
      "rating": 4.6,
      "region": "成都市",
      "tag": "科研院所"
    },
    {
      "name": "中国科学院成都生物研究所",
      "address": "成都市武侯区人民南路四段9号",
      "type": "科研院所",
      "location": {
        "lng": 104.06234,
        "lat": 30.64890
      },
      "distance": 0,
      "tel": "028-85229888",
      "rating": 4.6,
      "region": "成都市",
      "tag": "科研院所"
    },
    {
      "name": "中国科学院成都山地灾害与环境研究所",
      "address": "成都市武侯区人民南路四段16号",
      "type": "科研院所",
      "location": {
        "lng": 104.06456,
        "lat": 30.64567
      },
      "distance": 0,
      "tel": "028-85222345",
      "rating": 4.5,
      "region": "成都市",
      "tag": "科研院所"
    },
    {
      "name": "西南交通大学牵引动力国家重点实验室",
      "address": "成都市郫都区犀安路999号",
      "type": "科研院所",
      "location": {
        "lng": 103.88234,
        "lat": 30.75789
      },
      "distance": 0,
      "tel": "028-66367890",
      "rating": 4.6,
      "region": "成都市",
      "tag": "科研院所"
    },
    {
      "name": "四川大学高分子研究所",
      "address": "成都市武侯区一环路南一段24号",
      "type": "科研院所",
      "location": {
        "lng": 104.06432,
        "lat": 30.65345
      },
      "distance": 0,
      "tel": "028-85401234",
      "rating": 4.5,
      "region": "成都市",
      "tag": "科研院所"
    },
    {
      "name": "电子科技大学电子科学技术研究院",
      "address": "成都市高新区（西区）西源大道2006号",
      "type": "科研院所",
      "location": {
        "lng": 104.03654,
        "lat": 30.78876
      },
      "distance": 0,
      "tel": "028-61835678",
      "rating": 4.7,
      "region": "成都市",
      "tag": "科研院所"
    },
    {
      "name": "四川省计算机研究院",
      "address": "成都市武侯区成科西路3号",
      "type": "科研院所",
      "location": {
        "lng": 104.05890,
        "lat": 30.64123
      },
      "distance": 0,
      "tel": "028-85224567",
      "rating": 4.3,
      "region": "成都市",
      "tag": "科研院所"
    },
    {
      "name": "四川省人工智能研究院",
      "address": "成都市高新区天府大道中段",
      "type": "科研院所",
      "location": {
        "lng": 104.06543,
        "lat": 30.65789
      },
      "distance": 0,
      "tel": "028-85551234",
      "rating": 4.6,
      "region": "成都市",
      "tag": "科研院所"
    },
    {
      "name": "成都信息工程大学智能信息技术研究所",
      "address": "成都市双流区航空港学府路一段24号",
      "type": "科研院所",
      "location": {
        "lng": 103.96567,
        "lat": 30.56789
      },
      "distance": 0,
      "tel": "028-85961234",
      "rating": 4.4,
      "region": "成都市",
      "tag": "科研院所"
    }
  ]
}