{
  "pois": [
    {
      "name": "腾讯科技有限公司",
      "type": "企业",
      "address": "广东省深圳市南山区科技园科技中一路腾讯大厦",
      "region": "广东省",
      "description": "知名科技企业",
      "longitude": 77.51078389745636,
      "latitude": 27.397171030266833
    },
    {
      "name": "中科院化学研究所",
      "type": "科研院所",
      "address": "北京市海淀区中关村北一街2号",
      "region": "北京市",
      "description": "重要科研机构",
      "longitude": 120.52750682272537,
      "latitude": 46.58402329951854
    },
    {
      "name": "中国船舶重工集团公司",
      "type": "科研院所",
      "address": "北京市海淀区昆明湖南路72号",
      "region": "北京市",
      "description": "重要科研机构",
      "longitude": 120.84732315222062,
      "latitude": 44.833012771693305
    },
    {
      "name": "中科院自动化研究所",
      "type": "科研院所",
      "address": "北京市海淀区中关村东路95号",
      "region": "北京市",
      "description": "重要科研机构",
      "longitude": 92.31043619387698,
      "latitude": 39.3590913368005
    },
    {
      "name": "中国有研科技集团",
      "type": "科研院所",
      "address": "北京市海淀区北三环中路43号",
      "region": "北京市",
      "description": "重要科研机构",
      "longitude": 80.27959297467494,
      "latitude": 21.502686124936798
    },
    {
      "name": "用友网络科技股份有限公司",
      "type": "企业",
      "address": "北京市海淀区北清路68号",
      "region": "北京市",
      "description": "知名科技企业",
      "longitude": 80.55443270170694,
      "latitude": 25.898340743327843
    },
    {
      "name": "恒生电子股份有限公司",
      "type": "企业",
      "address": "浙江省杭州市滨江区江南大道3588号",
      "region": "浙江省",
      "description": "知名科技企业",
      "longitude": 75.48582091049943,
      "latitude": 39.51327224791582
    },
    {
      "name": "中科院计算技术研究所",
      "type": "科研院所",
      "address": "北京市海淀区中关村科学院南路6号",
      "region": "北京市",
      "description": "重要科研机构",
      "longitude": 124.06615957234925,
      "latitude": 36.928511406386434
    },
    {
      "name": "中国农业科学院",
      "type": "科研院所",
      "address": "北京市海淀区中关村南大街12号",
      "region": "北京市",
      "description": "重要科研机构",
      "longitude": 124.93451656556627,
      "latitude": 26.288038050581335
    },
    {
      "name": "用友网络科技股份有限公司",
      "type": "企业",
      "address": "北京市海淀区北清路68号",
      "region": "北京市",
      "description": "知名科技企业",
      "longitude": 86.96573087172966,
      "latitude": 52.007634696403656
    },
    {
      "name": "北京大学",
      "type": "高校",
      "address": "北京市海淀区颐和园路5号",
      "region": "北京市",
      "description": "知名高等院校",
      "longitude": 123.44481490955816,
      "latitude": 30.76414659628074
    },
    {
      "name": "广联达科技股份有限公司",
      "type": "企业",
      "address": "北京市海淀区西北旺东路中关村软件园二期",
      "region": "北京市",
      "description": "知名科技企业",
      "longitude": 120.64036083975367,
      "latitude": 44.742029233973554
    },
    {
      "name": "腾讯科技有限公司",
      "type": "企业",
      "address": "广东省深圳市南山区科技园科技中一路腾讯大厦",
      "region": "广东省",
      "description": "知名科技企业",
      "longitude": 119.74730458476564,
      "latitude": 49.67913132749719
    },
    {
      "name": "中科软科技股份有限公司",
      "type": "企业",
      "address": "北京市海淀区中关村南大街34号",
      "region": "北京市",
      "description": "知名科技企业",
      "longitude": 130.64913830148618,
      "latitude": 51.770463501102505
    },
    {
      "name": "中国水产科学研究院",
      "type": "科研院所",
      "address": "北京市丰台区永定路100号",
      "region": "北京市",
      "description": "重要科研机构",
      "longitude": 81.69714338902273,
      "latitude": 42.09603863378407
    },
    {
      "name": "北京理工大学",
      "type": "高校",
      "address": "北京市海淀区中关村南大街5号",
      "region": "北京市",
      "description": "知名高等院校",
      "longitude": 92.16781065641531,
      "latitude": 35.88771136877306
    },
    {
      "name": "中科院计算技术研究所",
      "type": "科研院所",
      "address": "北京市海淀区中关村科学院南路6号",
      "region": "北京市",
      "description": "重要科研机构",
      "longitude": 112.11300812292444,
      "latitude": 43.82121819026428
    },
    {
      "name": "字节跳动",
      "type": "企业",
      "address": "北京市海淀区知春路甲48号",
      "region": "北京市",
      "description": "知名科技企业",
      "longitude": 108.23215533087398,
      "latitude": 40.92406222046536
    },
    {
      "name": "中科院半导体研究所",
      "type": "科研院所",
      "address": "北京市海淀区清华东路甲35号",
      "region": "北京市",
      "description": "重要科研机构",
      "longitude": 92.00456515665014,
      "latitude": 46.45644259012185
    },
    {
      "name": "大连理工大学",
      "type": "高校",
      "address": "辽宁省大连市甘井子区凌工路2号",
      "region": "辽宁省",
      "description": "知名高等院校",
      "longitude": 113.1832524980906,
      "latitude": 45.5080254556457
    },
    {
      "name": "中科院自动化研究所",
      "type": "科研院所",
      "address": "北京市海淀区中关村东路95号",
      "region": "北京市",
      "description": "重要科研机构",
      "longitude": 87.09135167380398,
      "latitude": 23.387650153897802
    },
    {
      "name": "中国电子科技集团公司",
      "type": "科研院所",
      "address": "北京市石景山区双园路11号",
      "region": "北京市",
      "description": "重要科研机构",
      "longitude": 77.19963086855894,
      "latitude": 51.73122960074812
    },
    {
      "name": "厦门大学",
      "type": "高校",
      "address": "福建省厦门市思明区思明南路422号",
      "region": "福建省",
      "description": "知名高等院校",
      "longitude": 82.1122503168024,
      "latitude": 26.841650773094845
    },
    {
      "name": "中科院自动化研究所",
      "type": "科研院所",
      "address": "北京市海淀区中关村东路95号",
      "region": "北京市",
      "description": "重要科研机构",
      "longitude": 125.6220494969616,
      "latitude": 33.95708432152517
    },
    {
      "name": "南开大学",
      "type": "高校",
      "address": "天津市津南区雅观路135号",
      "region": "天津市",
      "description": "知名高等院校",
      "longitude": 108.70296335841999,
      "latitude": 42.38247459367007
    },
    {
      "name": "腾讯科技有限公司",
      "type": "企业",
      "address": "广东省深圳市南山区科技园科技中一路腾讯大厦",
      "region": "广东省",
      "description": "知名科技企业",
      "longitude": 116.85002622164902,
      "latitude": 29.939062680589302
    },
    {
      "name": "南开大学",
      "type": "高校",
      "address": "天津市津南区雅观路135号",
      "region": "天津市",
      "description": "知名高等院校",
      "longitude": 75.74599420064133,
      "latitude": 43.296853461656625
    },
    {
      "name": "小米科技有限责任公司",
      "type": "企业",
      "address": "北京市海淀区清河中街68号",
      "region": "北京市",
      "description": "知名科技企业",
      "longitude": 74.40414724727877,
      "latitude": 38.990513509793836
    },
    {
      "name": "京东集团",
      "type": "企业",
      "address": "北京市亦庄经济开发区科创十一街18号",
      "region": "北京市",
      "description": "知名科技企业",
      "longitude": 109.1945172649968,
      "latitude": 23.633995438374658
    },
    {
      "name": "复旦大学",
      "type": "高校",
      "address": "上海市杨浦区邯郸路220号",
      "region": "上海市",
      "description": "知名高等院校",
      "longitude": 110.49154193606348,
      "latitude": 49.392324563111046
    },
    {
      "name": "中山大学",
      "type": "高校",
      "address": "广东省广州市新港西路135号",
      "region": "广东省",
      "description": "知名高等院校",
      "longitude": 105.68505088893093,
      "latitude": 21.878943954998267
    },
    {
      "name": "中国水产科学研究院",
      "type": "科研院所",
      "address": "北京市丰台区永定路100号",
      "region": "北京市",
      "description": "重要科研机构",
      "longitude": 120.5525272216873,
      "latitude": 25.104847454904963
    },
    {
      "name": "复旦大学",
      "type": "高校",
      "address": "上海市杨浦区邯郸路220号",
      "region": "上海市",
      "description": "知名高等院校",
      "longitude": 116.53502025168937,
      "latitude": 26.75922616182075
    },
    {
      "name": "中科软科技股份有限公司",
      "type": "企业",
      "address": "北京市海淀区中关村南大街34号",
      "region": "北京市",
      "description": "知名科技企业",
      "longitude": 86.78775599499892,
      "latitude": 40.507343628252265
    },
    {
      "name": "大连理工大学",
      "type": "高校",
      "address": "辽宁省大连市甘井子区凌工路2号",
      "region": "辽宁省",
      "description": "知名高等院校",
      "longitude": 75.64929658828834,
      "latitude": 36.397034911688195
    },
    {
      "name": "中科院半导体研究所",
      "type": "科研院所",
      "address": "北京市海淀区清华东路甲35号",
      "region": "北京市",
      "description": "重要科研机构",
      "longitude": 75.49215361350775,
      "latitude": 31.558351304323217
    },
    {
      "name": "中科院半导体研究所",
      "type": "科研院所",
      "address": "北京市海淀区清华东路甲35号",
      "region": "北京市",
      "description": "重要科研机构",
      "longitude": 83.28677212516105,
      "latitude": 48.23660199852601
    },
    {
      "name": "厦门大学",
      "type": "高校",
      "address": "福建省厦门市思明区思明南路422号",
      "region": "福建省",
      "description": "知名高等院校",
      "longitude": 108.82390780248915,
      "latitude": 27.452320557051376
    },
    {
      "name": "恒生电子股份有限公司",
      "type": "企业",
      "address": "浙江省杭州市滨江区江南大道3588号",
      "region": "浙江省",
      "description": "知名科技企业",
      "longitude": 105.58287407243878,
      "latitude": 50.245963603511136
    },
    {
      "name": "中科院光电技术研究所",
      "type": "科研院所",
      "address": "四川省成都市双流区光电大道1号",
      "region": "四川省",
      "description": "重要科研机构",
      "longitude": 97.80571956627628,
      "latitude": 34.466744785479094
    },
    {
      "name": "中国电子科技集团公司",
      "type": "科研院所",
      "address": "北京市石景山区双园路11号",
      "region": "北京市",
      "description": "重要科研机构",
      "longitude": 78.61240649213948,
      "latitude": 47.00368941512019
    },
    {
      "name": "浙江大学",
      "type": "高校",
      "address": "浙江省杭州市西湖区余杭塘路866号",
      "region": "浙江省",
      "description": "知名高等院校",
      "longitude": 99.95097571462077,
      "latitude": 44.23944777602107
    },
    {
      "name": "字节跳动",
      "type": "企业",
      "address": "北京市海淀区知春路甲48号",
      "region": "北京市",
      "description": "知名科技企业",
      "longitude": 82.10655160074162,
      "latitude": 21.7775790649864
    },
    {
      "name": "浙江大学",
      "type": "高校",
      "address": "浙江省杭州市西湖区余杭塘路866号",
      "region": "浙江省",
      "description": "知名高等院校",
      "longitude": 108.79290430999967,
      "latitude": 49.08225542905195
    },
    {
      "name": "中国航天科技集团",
      "type": "科研院所",
      "address": "北京市海淀区阜成路16号",
      "region": "北京市",
      "description": "重要科研机构",
      "longitude": 100.33381571706195,
      "latitude": 40.1562172676647
    },
    {
      "name": "吉林大学",
      "type": "高校",
      "address": "吉林省长春市前进大街2699号",
      "region": "吉林省",
      "description": "知名高等院校",
      "longitude": 116.52505320319312,
      "latitude": 20.098569245996615
    },
    {
      "name": "京东集团",
      "type": "企业",
      "address": "北京市亦庄经济开发区科创十一街18号",
      "region": "北京市",
      "description": "知名科技企业",
      "longitude": 129.7829867260395,
      "latitude": 18.954396337141894
    },
    {
      "name": "用友网络科技股份有限公司",
      "type": "企业",
      "address": "北京市海淀区北清路68号",
      "region": "北京市",
      "description": "知名科技企业",
      "longitude": 126.82440183118499,
      "latitude": 18.53868277595533
    },
    {
      "name": "恒生电子股份有限公司",
      "type": "企业",
      "address": "浙江省杭州市滨江区江南大道3588号",
      "region": "浙江省",
      "description": "知名科技企业",
      "longitude": 74.22978526835806,
      "latitude": 37.063203134947585
    },
    {
      "name": "北京航空航天大学",
      "type": "高校",
      "address": "北京市海淀区学院路37号",
      "region": "北京市",
      "description": "知名高等院校",
      "longitude": 95.0651316800525,
      "latitude": 50.15217762706351
    },
    {
      "name": "网易公司",
      "type": "企业",
      "address": "广东省广州市天河区思蕴路5号",
      "region": "广东省",
      "description": "知名科技企业",
      "longitude": 77.55467371665047,
      "latitude": 22.153171865471375
    },
    {
      "name": "西安交通大学",
      "type": "高校",
      "address": "陕西省西安市雁翔路99号",
      "region": "陕西省",
      "description": "知名高等院校",
      "longitude": 77.59659845893327,
      "latitude": 34.928274711800114
    },
    {
      "name": "华中科技大学",
      "type": "高校",
      "address": "湖北省武汉市洪山区珞喻路1037号",
      "region": "湖北省",
      "description": "知名高等院校",
      "longitude": 88.0273000142044,
      "latitude": 39.69807507151143
    },
    {
      "name": "中国林业科学研究院",
      "type": "科研院所",
      "address": "北京市海淀区东升南路2号",
      "region": "北京市",
      "description": "重要科研机构",
      "longitude": 100.71690736916813,
      "latitude": 44.19288819926676
    },
    {
      "name": "上海交通大学",
      "type": "高校",
      "address": "上海市闵行区东川路800号",
      "region": "上海市",
      "description": "知名高等院校",
      "longitude": 107.13382543906485,
      "latitude": 33.778661632395256
    },
    {
      "name": "搜狐公司",
      "type": "企业",
      "address": "北京市海淀区科学院南路2号",
      "region": "北京市",
      "description": "知名科技企业",
      "longitude": 73.12070835426248,
      "latitude": 25.523773069059413
    },
    {
      "name": "中国海洋大学",
      "type": "高校",
      "address": "山东省青岛市崂山区松岭路238号",
      "region": "山东省",
      "description": "知名高等院校",
      "longitude": 87.85029565693208,
      "latitude": 31.29114917327079
    },
    {
      "name": "中科院上海光机所",
      "type": "科研院所",
      "address": "上海市嘉定区清河路390号",
      "region": "上海市",
      "description": "重要科研机构",
      "longitude": 92.81512993670829,
      "latitude": 21.89586257987637
    },
    {
      "name": "复旦大学",
      "type": "高校",
      "address": "上海市杨浦区邯郸路220号",
      "region": "上海市",
      "description": "知名高等院校",
      "longitude": 115.10472092052187,
      "latitude": 25.28451183610057
    },
    {
      "name": "华中科技大学",
      "type": "高校",
      "address": "湖北省武汉市洪山区珞喻路1037号",
      "region": "湖北省",
      "description": "知名高等院校",
      "longitude": 107.29799773059881,
      "latitude": 35.42765561421912
    },
    {
      "name": "中国热带农业科学院",
      "type": "科研院所",
      "address": "海南省海口市学院路4号",
      "region": "海南省",
      "description": "重要科研机构",
      "longitude": 95.08818727725736,
      "latitude": 26.346985931824847
    },
    {
      "name": "北京大学",
      "type": "高校",
      "address": "北京市海淀区颐和园路5号",
      "region": "北京市",
      "description": "知名高等院校",
      "longitude": 129.28549935677097,
      "latitude": 49.43739497517997
    },
    {
      "name": "北京大学",
      "type": "高校",
      "address": "北京市海淀区颐和园路5号",
      "region": "北京市",
      "description": "知名高等院校",
      "longitude": 120.42832606496478,
      "latitude": 35.20951351640287
    },
    {
      "name": "中科院计算技术研究所",
      "type": "科研院所",
      "address": "北京市海淀区中关村科学院南路6号",
      "region": "北京市",
      "description": "重要科研机构",
      "longitude": 121.65889984718989,
      "latitude": 37.22331230145771
    },
    {
      "name": "西安交通大学",
      "type": "高校",
      "address": "陕西省西安市雁翔路99号",
      "region": "陕西省",
      "description": "知名高等院校",
      "longitude": 123.81708685302678,
      "latitude": 19.93445762305256
    },
    {
      "name": "中科院半导体研究所",
      "type": "科研院所",
      "address": "北京市海淀区清华东路甲35号",
      "region": "北京市",
      "description": "重要科研机构",
      "longitude": 87.894913888551,
      "latitude": 23.9794493854848
    },
    {
      "name": "新浪公司",
      "type": "企业",
      "address": "北京市海淀区西北旺东路10号院",
      "region": "北京市",
      "description": "知名科技企业",
      "longitude": 117.30463364993952,
      "latitude": 34.96284883236242
    },
    {
      "name": "浙江大学",
      "type": "高校",
      "address": "浙江省杭州市西湖区余杭塘路866号",
      "region": "浙江省",
      "description": "知名高等院校",
      "longitude": 86.46468982109164,
      "latitude": 46.301285596187356
    },
    {
      "name": "南京大学",
      "type": "高校",
      "address": "江苏省南京市鼓楼区汉口路22号",
      "region": "江苏省",
      "description": "知名高等院校",
      "longitude": 115.92566452362169,
      "latitude": 22.22883899541189
    },
    {
      "name": "哈尔滨工业大学",
      "type": "高校",
      "address": "黑龙江省哈尔滨市南岗区西大直街92号",
      "region": "黑龙江省",
      "description": "知名高等院校",
      "longitude": 130.35432238322556,
      "latitude": 50.720928140270935
    },
    {
      "name": "盛大网络",
      "type": "企业",
      "address": "上海市浦东新区张江高科技园区郭守敬路351号",
      "region": "上海市",
      "description": "知名科技企业",
      "longitude": 87.86513598781522,
      "latitude": 31.869410300996492
    },
    {
      "name": "腾讯科技有限公司",
      "type": "企业",
      "address": "广东省深圳市南山区科技园科技中一路腾讯大厦",
      "region": "广东省",
      "description": "知名科技企业",
      "longitude": 74.31864454890552,
      "latitude": 48.276118666219695
    },
    {
      "name": "华为技术有限公司",
      "type": "企业",
      "address": "广东省深圳市龙岗区坂田华为基地",
      "region": "广东省",
      "description": "知名科技企业",
      "longitude": 106.6323042497844,
      "latitude": 43.2955290341722
    },
    {
      "name": "百度公司",
      "type": "企业",
      "address": "北京市海淀区上地十街10号",
      "region": "北京市",
      "description": "知名科技企业",
      "longitude": 97.87441165874074,
      "latitude": 18.759156523732358
    },
    {
      "name": "搜狐公司",
      "type": "企业",
      "address": "北京市海淀区科学院南路2号",
      "region": "北京市",
      "description": "知名科技企业",
      "longitude": 79.44867283710134,
      "latitude": 27.05235701761326
    },
    {
      "name": "中国林业科学研究院",
      "type": "科研院所",
      "address": "北京市海淀区东升南路2号",
      "region": "北京市",
      "description": "重要科研机构",
      "longitude": 84.61746573698053,
      "latitude": 22.76419523409578
    },
    {
      "name": "小米科技有限责任公司",
      "type": "企业",
      "address": "北京市海淀区清河中街68号",
      "region": "北京市",
      "description": "知名科技企业",
      "longitude": 118.53503662178022,
      "latitude": 40.001494707587696
    },
    {
      "name": "厦门大学",
      "type": "高校",
      "address": "福建省厦门市思明区思明南路422号",
      "region": "福建省",
      "description": "知名高等院校",
      "longitude": 104.97868370882941,
      "latitude": 44.3904727105472
    },
    {
      "name": "中国科学院",
      "type": "科研院所",
      "address": "北京市三里河路52号",
      "region": "北京市",
      "description": "重要科研机构",
      "longitude": 98.71716354312102,
      "latitude": 29.11604030766528
    },
    {
      "name": "中科院光电技术研究所",
      "type": "科研院所",
      "address": "四川省成都市双流区光电大道1号",
      "region": "四川省",
      "description": "重要科研机构",
      "longitude": 132.0866633296916,
      "latitude": 51.86304165342972
    },
    {
      "name": "中国科学院",
      "type": "科研院所",
      "address": "北京市三里河路52号",
      "region": "北京市",
      "description": "重要科研机构",
      "longitude": 93.13318286779565,
      "latitude": 36.16909280157196
    },
    {
      "name": "广联达科技股份有限公司",
      "type": "企业",
      "address": "北京市海淀区西北旺东路中关村软件园二期",
      "region": "北京市",
      "description": "知名科技企业",
      "longitude": 96.78366054492389,
      "latitude": 36.75156650706157
    },
    {
      "name": "中科院计算技术研究所",
      "type": "科研院所",
      "address": "北京市海淀区中关村科学院南路6号",
      "region": "北京市",
      "description": "重要科研机构",
      "longitude": 105.66015137191926,
      "latitude": 46.75008895855045
    },
    {
      "name": "巨人网络",
      "type": "企业",
      "address": "上海市松江区中辰路655号",
      "region": "上海市",
      "description": "知名科技企业",
      "longitude": 85.62535977401679,
      "latitude": 21.426686022309916
    },
    {
      "name": "中科院化学研究所",
      "type": "科研院所",
      "address": "北京市海淀区中关村北一街2号",
      "region": "北京市",
      "description": "重要科研机构",
      "longitude": 107.06121286096992,
      "latitude": 48.11241197284015
    },
    {
      "name": "小米科技有限责任公司",
      "type": "企业",
      "address": "北京市海淀区清河中街68号",
      "region": "北京市",
      "description": "知名科技企业",
      "longitude": 133.7860700220378,
      "latitude": 28.79349347348523
    },
    {
      "name": "中山大学",
      "type": "高校",
      "address": "广东省广州市新港西路135号",
      "region": "广东省",
      "description": "知名高等院校",
      "longitude": 98.91463803375146,
      "latitude": 48.03173866346867
    },
    {
      "name": "中国林业科学研究院",
      "type": "科研院所",
      "address": "北京市海淀区东升南路2号",
      "region": "北京市",
      "description": "重要科研机构",
      "longitude": 74.25129205026343,
      "latitude": 19.1983579681919
    },
    {
      "name": "东北大学",
      "type": "高校",
      "address": "辽宁省沈阳市和平区文化路三巷11号",
      "region": "辽宁省",
      "description": "知名高等院校",
      "longitude": 119.80561530195237,
      "latitude": 39.405685362692324
    },
    {
      "name": "中国农业科学院",
      "type": "科研院所",
      "address": "北京市海淀区中关村南大街12号",
      "region": "北京市",
      "description": "重要科研机构",
      "longitude": 87.1626183968552,
      "latitude": 43.11862274795304
    },
    {
      "name": "北京航空航天大学",
      "type": "高校",
      "address": "北京市海淀区学院路37号",
      "region": "北京市",
      "description": "知名高等院校",
      "longitude": 111.69884192235203,
      "latitude": 27.634947467202046
    },
    {
      "name": "中科院化学研究所",
      "type": "科研院所",
      "address": "北京市海淀区中关村北一街2号",
      "region": "北京市",
      "description": "重要科研机构",
      "longitude": 93.64479945081186,
      "latitude": 40.15871477551691
    },
    {
      "name": "恒生电子股份有限公司",
      "type": "企业",
      "address": "浙江省杭州市滨江区江南大道3588号",
      "region": "浙江省",
      "description": "知名科技企业",
      "longitude": 74.96281429740775,
      "latitude": 46.979127951558965
    },
    {
      "name": "携程旅行网",
      "type": "企业",
      "address": "上海市闵行区联明路555号",
      "region": "上海市",
      "description": "知名科技企业",
      "longitude": 98.51632740222696,
      "latitude": 28.269281973928397
    },
    {
      "name": "中科院光电技术研究所",
      "type": "科研院所",
      "address": "四川省成都市双流区光电大道1号",
      "region": "四川省",
      "description": "重要科研机构",
      "longitude": 132.89248730991937,
      "latitude": 37.52106738674513
    },
    {
      "name": "大连理工大学",
      "type": "高校",
      "address": "辽宁省大连市甘井子区凌工路2号",
      "region": "辽宁省",
      "description": "知名高等院校",
      "longitude": 133.51025072525093,
      "latitude": 26.639376789006942
    },
    {
      "name": "美团网",
      "type": "企业",
      "address": "北京市朝阳区望京东园四区1号",
      "region": "北京市",
      "description": "知名科技企业",
      "longitude": 122.89089994773157,
      "latitude": 28.820590600447282
    },
    {
      "name": "中国航天科技集团",
      "type": "科研院所",
      "address": "北京市海淀区阜成路16号",
      "region": "北京市",
      "description": "重要科研机构",
      "longitude": 108.75942548732903,
      "latitude": 39.691152972999376
    },
    {
      "name": "网易公司",
      "type": "企业",
      "address": "广东省广州市天河区思蕴路5号",
      "region": "广东省",
      "description": "知名科技企业",
      "longitude": 130.6337520480249,
      "latitude": 34.574966642109665
    },
    {
      "name": "南京大学",
      "type": "高校",
      "address": "江苏省南京市鼓楼区汉口路22号",
      "region": "江苏省",
      "description": "知名高等院校",
      "longitude": 97.45904350190447,
      "latitude": 22.089743063659597
    }
  ]
}